[{"id": "ChIJr6TpLK9ZzpQRKLTp3mY14wY", "name": "Rua Jaceguai, 48-60", "address": "Bela Vista", "types": ["route"], "coordinates": {"lat": -23.5565535, "lng": -46.6368293}}, {"id": "ChIJKfwP1KhZzpQR8Mg43HKaFRo", "name": "Viaduto Jaceguai", "address": "Bela Vista", "types": ["route"], "coordinates": {"lat": -23.556237, "lng": -46.6366826}}, {"id": "ChIJgW2J2K5ZzpQRluDOepmNOl0", "name": "Rua Jaceguai", "address": "Bela Vista", "types": ["route"], "coordinates": {"lat": -23.5563426, "lng": -46.637508}}, {"id": "ChIJRVttKa9ZzpQRSVUF9ILbnC4", "name": "Rua Jaceguai", "address": "Bela Vista", "types": ["route"], "coordinates": {"lat": -23.5564549, "lng": -46.6371212}}, {"id": "ChIJO2180qhZzpQRa81bqIxSz-w", "name": "Rua Jaceguai", "address": "Bela Vista", "types": ["route"], "coordinates": {"lat": -23.5566281, "lng": -46.63657120000001}}, {"id": "ChIJQQijca5ZzpQRd27kAE0UzjM", "name": "Sisan", "address": "7, Rua Jaceguai, 400 - Bela Vista, S\u00e3o Paulo", "types": ["general_contractor", "point_of_interest", "establishment"], "coordinates": {"lat": -23.5563148, "lng": -46.6377028}}, {"id": "ChIJPTxh3q5ZzpQRTXknPtyk1h0", "name": "Rua Jaceguai, 15", "address": "Bela Vista", "types": ["route"], "coordinates": {"lat": -23.5562784, "lng": -46.63781889999999}}, {"id": "ChIJif1-Ea5ZzpQRi8XZhmFx-VI", "name": "Ecoponto Liberdade", "address": "Rua Jaceguai, 67 - Liberdade, S\u00e3o Paulo", "types": ["point_of_interest", "establishment"], "coordinates": {"lat": -23.5565966, "lng": -46.6370548}, "rating": 3.7, "rating_n": 15, "time_spent": [15, 15]}][{"id": "ChIJgW2J2K5ZzpQRluDOepmNOl0", "name": "Rua Jaceguai", "address": "Bela Vista", "types": ["route"], "coordinates": {"lat": -23.5563426, "lng": -46.637508}}, {"id": "ChIJRVttKa9ZzpQRSVUF9ILbnC4", "name": "Rua Jaceguai", "address": "Bela Vista", "types": ["route"], "coordinates": {"lat": -23.5564549, "lng": -46.6371212}}, {"id": "ChIJKfwP1KhZzpQR8Mg43HKaFRo", "name": "Viaduto Jaceguai", "address": "Bela Vista", "types": ["route"], "coordinates": {"lat": -23.556237, "lng": -46.6366826}}, {"id": "ChIJQQijca5ZzpQRd27kAE0UzjM", "name": "Sisan", "address": "7, Rua Jaceguai, 400 - Bela Vista, S\u00e3o Paulo", "types": ["general_contractor", "point_of_interest", "establishment"], "coordinates": {"lat": -23.5563148, "lng": -46.6377028}}][{"id": "ChIJr6TpLK9ZzpQRKLTp3mY14wY", "name": "Rua Jaceguai, 48-60", "address": "Bela Vista", "types": ["route"], "coordinates": {"lat": -23.5565535, "lng": -46.6368293}}, {"id": "ChIJKfwP1KhZzpQR8Mg43HKaFRo", "name": "Viaduto Jaceguai", "address": "Bela Vista", "types": ["route"], "coordinates": {"lat": -23.556237, "lng": -46.6366826}}, {"id": "ChIJRVttKa9ZzpQRSVUF9ILbnC4", "name": "Rua Jaceguai", "address": "Bela Vista", "types": ["route"], "coordinates": {"lat": -23.5564549, "lng": -46.6371212}}, {"id": "ChIJO2180qhZzpQRa81bqIxSz-w", "name": "Rua Jaceguai", "address": "Bela Vista", "types": ["route"], "coordinates": {"lat": -23.5566281, "lng": -46.63657120000001}}, {"id": "ChIJgW2J2K5ZzpQRluDOepmNOl0", "name": "Rua Jaceguai", "address": "Bela Vista", "types": ["route"], "coordinates": {"lat": -23.5563426, "lng": -46.637508}}, {"id": "ChIJQQijca5ZzpQRd27kAE0UzjM", "name": "Sisan", "address": "7, Rua Jaceguai, 400 - Bela Vista, S\u00e3o Paulo", "types": ["general_contractor", "point_of_interest", "establishment"], "coordinates": {"lat": -23.5563148, "lng": -46.6377028}}, {"id": "ChIJPTxh3q5ZzpQRTXknPtyk1h0", "name": "Rua Jaceguai, 15", "address": "Bela Vista", "types": ["route"], "coordinates": {"lat": -23.5562784, "lng": -46.63781889999999}}, {"id": "ChIJif1-Ea5ZzpQRi8XZhmFx-VI", "name": "Ecoponto Liberdade", "address": "Rua Jaceguai, 67 - Liberdade, S\u00e3o Paulo", "types": ["point_of_interest", "establishment"], "coordinates": {"lat": -23.5565966, "lng": -46.6370548}, "rating": 3.7, "rating_n": 15, "time_spent": [15, 15]}][{"id": "ChIJKfwP1KhZzpQR8Mg43HKaFRo", "name": "Viaduto Jaceguai", "address": "Bela Vista", "types": ["route"], "coordinates": {"lat": -23.556237, "lng": -46.6366826}}, {"id": "ChIJgW2J2K5ZzpQRluDOepmNOl0", "name": "Rua Jaceguai", "address": "Bela Vista", "types": ["route"], "coordinates": {"lat": -23.5563426, "lng": -46.637508}}, {"id": "ChIJRVttKa9ZzpQRSVUF9ILbnC4", "name": "Rua Jaceguai", "address": "Bela Vista", "types": ["route"], "coordinates": {"lat": -23.5564549, "lng": -46.6371212}}, {"id": "ChIJQQijca5ZzpQRd27kAE0UzjM", "name": "Sisan", "address": "7, Rua Jaceguai, 400 - Bela Vista, S\u00e3o Paulo", "types": ["general_contractor", "point_of_interest", "establishment"], "coordinates": {"lat": -23.5563148, "lng": -46.6377028}}][][]

def stringToNumber(s):
    s = s.split(',')
    return [float(s[0]), float(s[1])]
    
# print(b)
# a = queryLatitudeLongitude(-23.556708304312046, -46.636530025778484,-23.556472270145008, -46.6365514834506)
# print(a)

# b = readCsv()
# print(len(b))
# lista = []
# c = 0
# for i in range(4):
#     if not c:
#         c = i
#         continue
#     v1 = stringToNumber(b[c])
#     v2 =  stringToNumber(b[i])
#     # print(v1)
#     # print(v2)
#     lista.append(queryLatitudeLongitude(v1[0],v1[1],v2[0],v2[1]))
#     c = 0

# print(lista)